[
  { "id": 1, "name": "武汉大学", "city": "武汉", "rank": 1, "lng": 114.362, "lat": 30.541 },
  { "id": 2, "name": "光谷广场", "city": "武汉", "rank": 2, "lng": 114.404, "lat": 30.508 },
  { "id": 3, "name": "黄鹤楼", "city": "武汉", "rank": 3, "lng": 114.309, "lat": 30.547 },
  { "id": 4, "name": "江汉路", "city": "武汉", "rank": 4, "lng": 114.297, "lat": 30.581 },
  { "id": 5, "name": "东湖绿道", "city": "武汉", "rank": 5, "lng": 114.380, "lat": 30.565 },
  { "id": 6, "name": "楚河汉街", "city": "武汉", "rank": 6, "lng": 114.342, "lat": 30.563 },
  { "id": 7, "name": "汉口江滩", "city": "武汉", "rank": 7, "lng": 114.300, "lat": 30.595 },
  { "id": 8, "name": "汉阳造创意园", "city": "武汉", "rank": 8, "lng": 114.255, "lat": 30.561 },
  { "id": 9, "name": "武汉天地", "city": "武汉", "rank": 9, "lng": 114.318, "lat": 30.602 },
  { "id": 10, "name": "昙华林", "city": "武汉", "rank": 10, "lng": 114.316, "lat": 30.553 },
  { "id": 11, "name": "东湖樱花园", "city": "武汉", "rank": 11, "lng": 114.320, "lat": 30.560 },
  { "id": 12, "name": "东湖磨山", "city": "武汉", "rank": 12, "lng": 114.330, "lat": 30.570 },
  { "id": 13, "name": "东湖梨园", "city": "武汉", "rank": 13, "lng": 114.340, "lat": 30.580 },
  { "id": 14, "name": "东湖海洋世界", "city": "武汉", "rank": 14, "lng": 114.350, "lat": 30.590 },
  { "id": 15, "name": "东湖植物园", "city": "武汉", "rank": 15, "lng": 114.360, "lat": 30.600 },
  { "id": 16, "name": "东湖鸟语林", "city": "武汉", "rank": 16, "lng": 114.370, "lat": 30.610 },
  { "id": 17, "name": "东湖荷花池", "city": "武汉", "rank": 17, "lng": 114.380, "lat": 30.620 },
  { "id": 18, "name": "东湖游船", "city": "武汉", "rank": 18, "lng": 114.390, "lat": 30.630 },
  { "id": 19, "name": "东湖夜游", "city": "武汉", "rank": 19, "lng": 114.400, "lat": 30.640 },
  { "id": 20, "name": "东湖夜游", "city": "武汉", "rank": 20, "lng": 114.410, "lat": 30.650 },
  { "id": 21, "name": "东湖夜游", "city": "武汉", "rank": 21, "lng": 114.420, "lat": 30.660 },
  { "id": 22, "name": "东湖夜游", "city": "武汉", "rank": 22, "lng": 114.430, "lat": 30.670 },
  { "id": 23, "name": "东湖夜游", "city": "武汉", "rank": 23, "lng": 114.440, "lat": 30.680 },
  { "id": 24, "name": "东湖夜游", "city": "武汉", "rank": 24, "lng": 114.450, "lat": 30.690 },
  { "id": 25, "name": "东湖夜游", "city": "武汉", "rank": 25, "lng": 114.460, "lat": 30.700 },
  { "id": 26, "name": "东湖夜游", "city": "武汉", "rank": 26, "lng": 114.470, "lat": 30.710 },
  { "id": 27, "name": "东湖夜游", "city": "武汉", "rank": 27, "lng": 114.480, "lat": 30.720 },
  { "id": 28, "name": "东湖夜游", "city": "武汉", "rank": 28, "lng": 114.490, "lat": 30.730 },
  { "id": 29, "name": "东湖夜游", "city": "武汉", "rank": 29, "lng": 114.500, "lat": 30.740 },
  { "id": 30, "name": "东湖夜游", "city": "武汉", "rank": 30, "lng": 114.510, "lat": 30.750 },
  { "id": 31, "name": "东湖夜游", "city": "武汉", "rank": 31, "lng": 114.520, "lat": 30.760 },
  { "id": 32, "name": "东湖夜游", "city": "武汉", "rank": 32, "lng": 114.530, "lat": 30.770 },
  { "id": 33, "name": "东湖夜游", "city": "武汉", "rank": 33, "lng": 114.540, "lat": 30.780 },
  { "id": 34, "name": "东湖夜游", "city": "武汉", "rank": 34, "lng": 114.550, "lat": 30.790 },
  { "id": 35, "name": "东湖夜游", "city": "武汉", "rank": 35, "lng": 114.560, "lat": 30.800 },
  { "id": 36, "name": "东湖夜游", "city": "武汉", "rank": 36, "lng": 114.570, "lat": 30.810 },
  { "id": 37, "name": "东湖夜游", "city": "武汉", "rank": 37, "lng": 114.580, "lat": 30.820 },
  { "id": 38, "name": "东湖夜游", "city": "武汉", "rank": 38, "lng": 114.590, "lat": 30.830 },
  { "id": 39, "name": "东湖夜游", "city": "武汉", "rank": 39, "lng": 114.600, "lat": 30.840 },
  { "id": 40, "name": "东湖夜游", "city": "武汉", "rank": 40, "lng": 114.610, "lat": 30.850 },
  { "id": 41, "name": "东湖夜游", "city": "武汉", "rank": 41, "lng": 114.620, "lat": 30.860 },
  { "id": 42, "name": "东湖夜游", "city": "武汉", "rank": 42, "lng": 114.630, "lat": 30.870 },
  { "id": 43, "name": "东湖夜游", "city": "武汉", "rank": 43, "lng": 114.640, "lat": 30.880 },
  { "id": 44, "name": "东湖夜游", "city": "武汉", "rank": 44, "lng": 114.650, "lat": 30.890 },
  { "id": 45, "name": "东湖夜游", "city": "武汉", "rank": 45, "lng": 114.660, "lat": 30.900 },
  { "id": 46, "name": "东湖夜游", "city": "武汉", "rank": 46, "lng": 114.670, "lat": 30.910 },
  { "id": 47, "name": "东湖夜游", "city": "武汉", "rank": 47, "lng": 114.680, "lat": 30.920 },
  { "id": 48, "name": "东湖夜游", "city": "武汉", "rank": 48, "lng": 114.690, "lat": 30.930 },
  { "id": 49, "name": "东湖夜游", "city": "武汉", "rank": 49, "lng": 114.700, "lat": 30.940 },
  { "id": 50, "name": "东湖夜游", "city": "武汉", "rank": 50, "lng": 114.710, "lat": 30.950 },
  { "id": 51, "name": "东湖夜游", "city": "武汉", "rank": 51, "lng": 114.720, "lat": 30.960 },
  { "id": 52, "name": "东湖夜游", "city": "武汉", "rank": 52, "lng": 114.730, "lat": 30.970 },
  { "id": 53, "name": "东湖夜游", "city": "武汉", "rank": 53, "lng": 114.740, "lat": 30.980 },
  { "id": 54, "name": "东湖夜游", "city": "武汉", "rank": 54, "lng": 114.750, "lat": 30.990 },
  { "id": 55, "name": "东湖夜游", "city": "武汉", "rank": 55, "lng": 114.760, "lat": 31.000 },
  { "id": 56, "name": "东湖夜游", "city": "武汉", "rank": 56, "lng": 114.770, "lat": 31.010 },
  { "id": 57, "name": "东湖夜游", "city": "武汉", "rank": 57, "lng": 114.780, "lat": 31.020 },
  { "id": 58, "name": "东湖夜游", "city": "武汉", "rank": 58, "lng": 114.790, "lat": 31.030 }
]

